{"type":"FeatureCollection","features":[{"id":"49","type":"Feature","properties":{"scalerank":8,"featurecla":"Port","name":"Cuxhaven","website":"www.cuxport.de","natlscale":5.0,"ne_id":1730087357},"geometry":{"type":"Point","coordinates":[8.707243816,53.86472222]}},{"id":"50","type":"Feature","properties":{"scalerank":8,"featurecla":"Port","name":"Eckernforde","website":"www.stadtwerke-eckernfoerde.de","natlscale":5.0,"ne_id":1730087359},"geometry":{"type":"Point","coordinates":[9.835806832,54.47361111]}},{"id":"51","type":"Feature","properties":{"scalerank":8,"featurecla":"Port","name":"Nordenham","website":null,"natlscale":5.0,"ne_id":1730087363},"geometry":{"type":"Point","coordinates":[8.489517079,53.4875]}},{"id":"52","type":"Feature","properties":{"scalerank":8,"featurecla":"Port","name":"Papenburg","website":null,"natlscale":5.0,"ne_id":1730087365},"geometry":{"type":"Point","coordinates":[7.368963486,53.09638889]}},{"id":"53","type":"Feature","properties":{"scalerank":8,"featurecla":"Port","name":"Wismar","website":"www.hafen-wismar.de","natlscale":5.0,"ne_id":1730087367},"geometry":{"type":"Point","coordinates":[11.43916372,53.90638889]}},{"id":"54","type":"Feature","properties":{"scalerank":8,"featurecla":"Port","name":"Nyborg","website":"www.adp-as.com","natlscale":5.0,"ne_id":1730087369},"geometry":{"type":"Point","coordinates":[10.80689046,55.29888889]}},{"id":"55","type":"Feature","properties":{"scalerank":8,"featurecla":"Port","name":"Helsingor","website":"www.helsingoerhavn.dk","natlscale":5.0,"ne_id":1730087371},"geometry":{"type":"Point","coordinates":[12.61702002,56.03444444]}},{"id":"56","type":"Feature","properties":{"scalerank":8,"featurecla":"Port","name":"Odense","website":null,"natlscale":5.0,"ne_id":1730087373},"geometry":{"type":"Point","coordinates":[10.52497055,55.46638889]}},{"id":"57","type":"Feature","properties":{"scalerank":8,"featurecla":"Port","name":"Nyborg","website":"www.nyborg.dk/Engelsk/Tourism/NyborgsHarbours","natlscale":5.0,"ne_id":1730087375},"geometry":{"type":"Point","coordinates":[10.78810365,55.30694444]}},{"id":"58","type":"Feature","properties":{"scalerank":8,"featurecla":"Port","name":"Frederikshavn","website":"www.frederikshavnhavn.dk","natlscale":5.0,"ne_id":1730087377},"geometry":{"type":"Point","coordinates":[10.54146054,57.43777778]}},{"id":"59","type":"Feature","properties":{"scalerank":8,"featurecla":"Port","name":"Haderslev","website":null,"natlscale":5.0,"ne_id":1730087381},"geometry":{"type":"Point","coordinates":[9.504416961,55.25111111]}},{"id":"60","type":"Feature","properties":{"scalerank":8,"featurecla":"Port","name":"Horsens","website":"www.horsenshavn.dk","natlscale":5.0,"ne_id":1730087383},"geometry":{"type":"Point","coordinates":[9.868433451,55.85416667]}},{"id":"61","type":"Feature","properties":{"scalerank":8,"featurecla":"Port","name":"Kalundborg","website":"www.portofkalundborg.dk","natlscale":5.0,"ne_id":1730087385},"geometry":{"type":"Point","coordinates":[11.08598351,55.66944444]}},{"id":"62","type":"Feature","properties":{"scalerank":8,"featurecla":"Port","name":"Kolding","website":"www.koldingport.dk","natlscale":5.0,"ne_id":1730087387},"geometry":{"type":"Point","coordinates":[9.493404005,55.49277778]}},{"id":"63","type":"Feature","properties":{"scalerank":8,"featurecla":"Port","name":"Nakskov","website":null,"natlscale":5.0,"ne_id":1730087389},"geometry":{"type":"Point","coordinates":[11.12108363,54.83222222]}},{"id":"64","type":"Feature","properties":{"scalerank":8,"featurecla":"Port","name":"Nykobing Falster","website":"www.guldborgsundhavne.dk","natlscale":5.0,"ne_id":1730087391},"geometry":{"type":"Point","coordinates":[11.85706714,54.77083333]}},{"id":"65","type":"Feature","properties":{"scalerank":8,"featurecla":"Port","name":"Randers","website":"www.randershavn.dk","natlscale":5.0,"ne_id":1730087393},"geometry":{"type":"Point","coordinates":[10.05265018,56.46027778]}},{"id":"66","type":"Feature","properties":{"scalerank":8,"featurecla":"Port","name":"Rudkobing","website":"www.langelandkommune.dk","natlscale":5.0,"ne_id":1730087395},"geometry":{"type":"Point","coordinates":[10.704947,54.93972222]}},{"id":"67","type":"Feature","properties":{"scalerank":8,"featurecla":"Port","name":"Svendborg","website":null,"natlscale":5.0,"ne_id":1730087399},"geometry":{"type":"Point","coordinates":[10.61702002,55.05861111]}},{"id":"68","type":"Feature","properties":{"scalerank":8,"featurecla":"Port","name":"Vejle","website":"www.vejleport.dk","natlscale":5.0,"ne_id":1730087401},"geometry":{"type":"Point","coordinates":[9.551943463,55.70555556]}},{"id":"69","type":"Feature","properties":{"scalerank":8,"featurecla":"Port","name":"Skagen","website":"www.skagenhavn.dk","natlscale":5.0,"ne_id":1730087403},"geometry":{"type":"Point","coordinates":[10.58881037,57.71861111]}},{"id":"82","type":"Feature","properties":{"scalerank":8,"featurecla":"Port","name":"Kotka","website":"www.portofkotka.fi","natlscale":5.0,"ne_id":1730087431},"geometry":{"type":"Point","coordinates":[26.9418139,60.46111111]}},{"id":"83","type":"Feature","properties":{"scalerank":8,"featurecla":"Port","name":"Veitsiluoto","website":null,"natlscale":5.0,"ne_id":1730087435},"geometry":{"type":"Point","coordinates":[24.61666667,65.68305556]}},{"id":"155","type":"Feature","properties":{"scalerank":8,"featurecla":"Port","name":"Ventspils","website":"www.portofventspils.lv","natlscale":5.0,"ne_id":1730087597},"geometry":{"type":"Point","coordinates":[21.53704358,57.40305556]}},{"id":"165","type":"Feature","properties":{"scalerank":8,"featurecla":"Port","name":"Delfzijl","website":"www.groningen-seaports.com","natlscale":5.0,"ne_id":1730087619},"geometry":{"type":"Point","coordinates":[6.955477032,53.32055556]}},{"id":"166","type":"Feature","properties":{"scalerank":8,"featurecla":"Port","name":"Arendal","website":null,"natlscale":5.0,"ne_id":1730087621},"geometry":{"type":"Point","coordinates":[8.757420495,58.45416667]}},{"id":"167","type":"Feature","properties":{"scalerank":8,"featurecla":"Port","name":"Drammen","website":"www.drammenhavn.no","natlscale":5.0,"ne_id":1730087623},"geometry":{"type":"Point","coordinates":[10.22497055,59.73666667]}},{"id":"168","type":"Feature","properties":{"scalerank":8,"featurecla":"Port","name":"Halden","website":null,"natlscale":5.0,"ne_id":1730087625},"geometry":{"type":"Point","coordinates":[11.37532391,59.11805556]}},{"id":"169","type":"Feature","properties":{"scalerank":8,"featurecla":"Port","name":"Harstad","website":null,"natlscale":5.0,"ne_id":1730087627},"geometry":{"type":"Point","coordinates":[16.54163722,68.78916667]}},{"id":"170","type":"Feature","properties":{"scalerank":8,"featurecla":"Port","name":"Larvik","website":"www.larvikhavn.vf.no","natlscale":5.0,"ne_id":1730087629},"geometry":{"type":"Point","coordinates":[10.02550059,59.04527778]}},{"id":"171","type":"Feature","properties":{"scalerank":8,"featurecla":"Port","name":"Moss","website":"www.moss-havn.no","natlscale":5.0,"ne_id":1730087633},"geometry":{"type":"Point","coordinates":[10.65282686,59.43222222]}},{"id":"172","type":"Feature","properties":{"scalerank":8,"featurecla":"Port","name":"Sandefjord","website":null,"natlscale":5.0,"ne_id":1730087635},"geometry":{"type":"Point","coordinates":[10.22497055,59.12361111]}},{"id":"173","type":"Feature","properties":{"scalerank":8,"featurecla":"Port","name":"Tonsberg","website":null,"natlscale":5.0,"ne_id":1730087637},"geometry":{"type":"Point","coordinates":[10.404947,59.265]}},{"id":"182","type":"Feature","properties":{"scalerank":8,"featurecla":"Port","name":"Swinoujscie","website":"www.phs.com.pl","natlscale":5.0,"ne_id":1730087657},"geometry":{"type":"Point","coordinates":[14.26861013,53.905]}},{"id":"189","type":"Feature","properties":{"scalerank":8,"featurecla":"Port","name":"Kandalaksha","website":null,"natlscale":5.0,"ne_id":1730087673},"geometry":{"type":"Point","coordinates":[32.404947,67.135]}},{"id":"192","type":"Feature","properties":{"scalerank":8,"featurecla":"Port","name":"Kronshtadt","website":null,"natlscale":5.0,"ne_id":1730087679},"geometry":{"type":"Point","coordinates":[29.76737338,59.98694444]}},{"id":"199","type":"Feature","properties":{"scalerank":8,"featurecla":"Port","name":"Falkenberg","website":"www.falkenbergs-terminal.se","natlscale":5.0,"ne_id":1730087695},"geometry":{"type":"Point","coordinates":[12.47638398,56.88944444]}},{"id":"200","type":"Feature","properties":{"scalerank":8,"featurecla":"Port","name":"Ahus","website":"www.ahushamn.se","natlscale":5.0,"ne_id":1730087697},"geometry":{"type":"Point","coordinates":[14.30547703,55.92555556]}},{"id":"201","type":"Feature","properties":{"scalerank":8,"featurecla":"Port","name":"Harnosand","website":"www.harnosand.se","natlscale":5.0,"ne_id":1730087699},"geometry":{"type":"Point","coordinates":[17.93881037,62.64083333]}},{"id":"202","type":"Feature","properties":{"scalerank":8,"featurecla":"Port","name":"Hoganas","website":null,"natlscale":5.0,"ne_id":1730087701},"geometry":{"type":"Point","coordinates":[12.54146054,56.19861111]}},{"id":"203","type":"Feature","properties":{"scalerank":8,"featurecla":"Port","name":"Karlshamn","website":"www.karlshamnshamn.se","natlscale":5.0,"ne_id":1730087705},"geometry":{"type":"Point","coordinates":[14.85830389,56.1625]}},{"id":"204","type":"Feature","properties":{"scalerank":8,"featurecla":"Port","name":"Karlskrona","website":"www.karlskrona.se/hamn","natlscale":5.0,"ne_id":1730087707},"geometry":{"type":"Point","coordinates":[15.58598351,56.16]}},{"id":"205","type":"Feature","properties":{"scalerank":8,"featurecla":"Port","name":"Nynashamn","website":"www.stoports.com","natlscale":5.0,"ne_id":1730087709},"geometry":{"type":"Point","coordinates":[17.95812721,58.91333333]}},{"id":"206","type":"Feature","properties":{"scalerank":8,"featurecla":"Port","name":"Oskarshamn","website":"www.port.oskarshamn.se","natlscale":5.0,"ne_id":1730087711},"geometry":{"type":"Point","coordinates":[16.47073027,57.265]}},{"id":"207","type":"Feature","properties":{"scalerank":8,"featurecla":"Port","name":"Oxelosund","website":"www.oxhamn.se","natlscale":5.0,"ne_id":1730087713},"geometry":{"type":"Point","coordinates":[17.10795053,58.66166667]}},{"id":"208","type":"Feature","properties":{"scalerank":8,"featurecla":"Port","name":"Pitea","website":"www.bottenvikens-stuveri.se","natlscale":5.0,"ne_id":1730087715},"geometry":{"type":"Point","coordinates":[21.47037691,65.30888889]}},{"id":"209","type":"Feature","properties":{"scalerank":8,"featurecla":"Port","name":"Sodertalje","website":"www.soeport.se","natlscale":5.0,"ne_id":1730087717},"geometry":{"type":"Point","coordinates":[17.65918728,59.16972222]}},{"id":"210","type":"Feature","properties":{"scalerank":8,"featurecla":"Port","name":"Trelleborg","website":"www.trelleborgshamn.se","natlscale":5.0,"ne_id":1730087719},"geometry":{"type":"Point","coordinates":[13.15159011,55.36805556]}},{"id":"211","type":"Feature","properties":{"scalerank":8,"featurecla":"Port","name":"Uddevalla","website":"www.uddevalla-hamn.se","natlscale":5.0,"ne_id":1730087723},"geometry":{"type":"Point","coordinates":[11.90477032,58.34805556]}},{"id":"212","type":"Feature","properties":{"scalerank":8,"featurecla":"Port","name":"Ystad","website":"www.ystad.se","natlscale":5.0,"ne_id":1730087725},"geometry":{"type":"Point","coordinates":[13.82073027,55.42138889]}},{"id":"328","type":"Feature","properties":{"scalerank":7,"featurecla":"Port","name":"Helgoland","website":"www.helgoland.de","natlscale":10.0,"ne_id":1730087985},"geometry":{"type":"Point","coordinates":[7.891283863,54.1775]}},{"id":"329","type":"Feature","properties":{"scalerank":7,"featurecla":"Port","name":"Travemunde","website":null,"natlscale":10.0,"ne_id":1730087987},"geometry":{"type":"Point","coordinates":[10.86825677,53.95222222]}},{"id":"330","type":"Feature","properties":{"scalerank":7,"featurecla":"Port","name":"Thisted","website":null,"natlscale":10.0,"ne_id":1730087989},"geometry":{"type":"Point","coordinates":[8.692167256,56.95277778]}},{"id":"338","type":"Feature","properties":{"scalerank":7,"featurecla":"Port","name":"Parnu","website":"www.transcom.ee","natlscale":10.0,"ne_id":1730088007},"geometry":{"type":"Point","coordinates":[24.4746172,58.38111111]}},{"id":"339","type":"Feature","properties":{"scalerank":7,"featurecla":"Port","name":"Kuopio","website":null,"natlscale":10.0,"ne_id":1730088011},"geometry":{"type":"Point","coordinates":[27.68987044,62.88833333]}},{"id":"340","type":"Feature","properties":{"scalerank":7,"featurecla":"Port","name":"Joensuu","website":"www.jns.fi","natlscale":10.0,"ne_id":1730088013},"geometry":{"type":"Point","coordinates":[29.77709069,62.60444444]}},{"id":"341","type":"Feature","properties":{"scalerank":7,"featurecla":"Port","name":"Varkaus","website":null,"natlscale":10.0,"ne_id":1730088015},"geometry":{"type":"Point","coordinates":[27.87479388,62.3125]}},{"id":"432","type":"Feature","properties":{"scalerank":7,"featurecla":"Port","name":"Groningen","website":null,"natlscale":10.0,"ne_id":1730088219},"geometry":{"type":"Point","coordinates":[6.586866902,53.21833333]}},{"id":"433","type":"Feature","properties":{"scalerank":7,"featurecla":"Port","name":"Alta","website":"www.altahavn.no","natlscale":10.0,"ne_id":1730088221},"geometry":{"type":"Point","coordinates":[23.23704358,69.96777778]}},{"id":"434","type":"Feature","properties":{"scalerank":7,"featurecla":"Port","name":"Andenes","website":null,"natlscale":10.0,"ne_id":1730088223},"geometry":{"type":"Point","coordinates":[16.1237338,69.32416667]}},{"id":"435","type":"Feature","properties":{"scalerank":7,"featurecla":"Port","name":"Bronnoysund","website":"www.bronnoyhavn.com","natlscale":10.0,"ne_id":1730088227},"geometry":{"type":"Point","coordinates":[12.20194346,65.4725]}},{"id":"436","type":"Feature","properties":{"scalerank":7,"featurecla":"Port","name":"Farsund","website":null,"natlscale":10.0,"ne_id":1730088229},"geometry":{"type":"Point","coordinates":[6.789870436,58.08861111]}},{"id":"437","type":"Feature","properties":{"scalerank":7,"featurecla":"Port","name":"Floro","website":null,"natlscale":10.0,"ne_id":1730088231},"geometry":{"type":"Point","coordinates":[5.002826855,61.59777778]}},{"id":"438","type":"Feature","properties":{"scalerank":7,"featurecla":"Port","name":"Kristiansand","website":"www.kristiansandhavn.no","natlscale":10.0,"ne_id":1730088233},"geometry":{"type":"Point","coordinates":[7.986336867,58.14194444]}},{"id":"439","type":"Feature","properties":{"scalerank":7,"featurecla":"Port","name":"Namsos","website":"www.namsos.kommune.no","natlscale":10.0,"ne_id":1730088235},"geometry":{"type":"Point","coordinates":[11.49004711,64.46416667]}},{"id":"440","type":"Feature","properties":{"scalerank":7,"featurecla":"Port","name":"Rorvik","website":null,"natlscale":10.0,"ne_id":1730088237},"geometry":{"type":"Point","coordinates":[11.22691402,64.86055556]}},{"id":"441","type":"Feature","properties":{"scalerank":7,"featurecla":"Port","name":"Sandnessjoen","website":null,"natlscale":10.0,"ne_id":1730088239},"geometry":{"type":"Point","coordinates":[12.61878681,66.02166667]}},{"id":"442","type":"Feature","properties":{"scalerank":7,"featurecla":"Port","name":"Stokmarknes","website":"www.hadselhavnevesen.no","natlscale":10.0,"ne_id":1730088241},"geometry":{"type":"Point","coordinates":[14.90989399,68.56833333]}},{"id":"443","type":"Feature","properties":{"scalerank":7,"featurecla":"Port","name":"Stord","website":null,"natlscale":10.0,"ne_id":1730088245},"geometry":{"type":"Point","coordinates":[5.501413428,59.78]}},{"id":"460","type":"Feature","properties":{"scalerank":7,"featurecla":"Port","name":"Gdansk","website":"www.portgdansk.pl","natlscale":10.0,"ne_id":1730088283},"geometry":{"type":"Point","coordinates":[18.66878681,54.39333333]}},{"id":"461","type":"Feature","properties":{"scalerank":7,"featurecla":"Port","name":"Gdynia","website":"www.port.gdynia.pl","natlscale":10.0,"ne_id":1730088285},"geometry":{"type":"Point","coordinates":[18.53845701,54.53333333]}},{"id":"477","type":"Feature","properties":{"scalerank":7,"featurecla":"Port","name":"Karlstad","website":"www.vanerhamn.se","natlscale":10.0,"ne_id":1730088321},"geometry":{"type":"Point","coordinates":[13.52020024,59.37527778]}},{"id":"478","type":"Feature","properties":{"scalerank":7,"featurecla":"Port","name":"Lidkoping","website":"www.vanerhamn.se","natlscale":10.0,"ne_id":1730088323},"geometry":{"type":"Point","coordinates":[13.15936396,58.50916667]}},{"id":"479","type":"Feature","properties":{"scalerank":7,"featurecla":"Port","name":"Skelleftea","website":null,"natlscale":10.0,"ne_id":1730088325},"geometry":{"type":"Point","coordinates":[21.25176678,64.67833333]}},{"id":"480","type":"Feature","properties":{"scalerank":7,"featurecla":"Port","name":"Umea","website":"www.umeahamn.se","natlscale":10.0,"ne_id":1730088327},"geometry":{"type":"Point","coordinates":[20.26772674,63.81666667]}},{"id":"517","type":"Feature","properties":{"scalerank":7,"featurecla":"Port","name":"Kemi","website":null,"natlscale":10.0,"ne_id":1730088411},"geometry":{"type":"Point","coordinates":[24.56,65.73]}},{"id":"518","type":"Feature","properties":{"scalerank":7,"featurecla":"Port","name":"Vaasa","website":null,"natlscale":10.0,"ne_id":1730088413},"geometry":{"type":"Point","coordinates":[21.58,63.1]}},{"id":"519","type":"Feature","properties":{"scalerank":7,"featurecla":"Port","name":"Turku","website":null,"natlscale":10.0,"ne_id":1730088415},"geometry":{"type":"Point","coordinates":[22.23,60.45]}},{"id":"520","type":"Feature","properties":{"scalerank":7,"featurecla":"Port","name":"Liepaja","website":null,"natlscale":10.0,"ne_id":1730088417},"geometry":{"type":"Point","coordinates":[21.01,56.51]}},{"id":"618","type":"Feature","properties":{"scalerank":6,"featurecla":"Port","name":"Emden","website":"www.seaport-emden.de","natlscale":20.0,"ne_id":1730088637},"geometry":{"type":"Point","coordinates":[7.192873969,53.34611111]}},{"id":"619","type":"Feature","properties":{"scalerank":6,"featurecla":"Port","name":"Flensburg","website":"www.flensburg-tourismus.de","natlscale":20.0,"ne_id":1730088641},"geometry":{"type":"Point","coordinates":[9.436866902,54.80333333]}},{"id":"620","type":"Feature","properties":{"scalerank":6,"featurecla":"Port","name":"Wilhelmshaven","website":"www.wilhelmshaven-port.de","natlscale":20.0,"ne_id":1730088643},"geometry":{"type":"Point","coordinates":[8.122143698,53.53]}},{"id":"621","type":"Feature","properties":{"scalerank":6,"featurecla":"Port","name":"Esbjerg","website":"www.port-of-esbjerg.dk","natlscale":20.0,"ne_id":1730088645},"geometry":{"type":"Point","coordinates":[8.433863369,55.46555556]}},{"id":"622","type":"Feature","properties":{"scalerank":6,"featurecla":"Port","name":"Odense","website":"www.odensehavn.dk","natlscale":20.0,"ne_id":1730088647},"geometry":{"type":"Point","coordinates":[10.3868669,55.4175]}},{"id":"623","type":"Feature","properties":{"scalerank":6,"featurecla":"Port","name":"Sonderborg","website":"www.sonderborg-kommune.dk","natlscale":20.0,"ne_id":1730088649},"geometry":{"type":"Point","coordinates":[9.776737338,54.90694444]}},{"id":"624","type":"Feature","properties":{"scalerank":6,"featurecla":"Port","name":"Ronne","website":"www.roennehavn.dk","natlscale":20.0,"ne_id":1730088651},"geometry":{"type":"Point","coordinates":[14.68775029,55.09611111]}},{"id":"634","type":"Feature","properties":{"scalerank":6,"featurecla":"Port","name":"Oulu","website":"www.ouluport.com","natlscale":20.0,"ne_id":1730088673},"geometry":{"type":"Point","coordinates":[25.45459364,65.01583333]}},{"id":"691","type":"Feature","properties":{"scalerank":6,"featurecla":"Port","name":"Klaipeda","website":"www.portofklaipeda.lt","natlscale":20.0,"ne_id":1730088803},"geometry":{"type":"Point","coordinates":[21.13421673,55.68722222]}},{"id":"701","type":"Feature","properties":{"scalerank":6,"featurecla":"Port","name":"Alesund","website":"www.alesund.havn.no","natlscale":20.0,"ne_id":1730088825},"geometry":{"type":"Point","coordinates":[6.171613663,62.4725]}},{"id":"703","type":"Feature","properties":{"scalerank":6,"featurecla":"Port","name":"Bodo","website":"www.bodohavn.no","natlscale":20.0,"ne_id":1730088829},"geometry":{"type":"Point","coordinates":[14.37267373,67.28888889]}},{"id":"705","type":"Feature","properties":{"scalerank":6,"featurecla":"Port","name":"Haugesund","website":"www.karmsund-havn.no","natlscale":20.0,"ne_id":1730088833},"geometry":{"type":"Point","coordinates":[5.25565371,59.41222222]}},{"id":"706","type":"Feature","properties":{"scalerank":6,"featurecla":"Port","name":"Kirkenes","website":null,"natlscale":20.0,"ne_id":1730088835},"geometry":{"type":"Point","coordinates":[30.05565371,69.72833333]}},{"id":"707","type":"Feature","properties":{"scalerank":6,"featurecla":"Port","name":"Kristiansund","website":"www.knhavn.no","natlscale":20.0,"ne_id":1730088839},"geometry":{"type":"Point","coordinates":[7.733333333,63.115]}},{"id":"708","type":"Feature","properties":{"scalerank":6,"featurecla":"Port","name":"Mo i Rana","website":"www.portofmoirana.no","natlscale":20.0,"ne_id":1730088841},"geometry":{"type":"Point","coordinates":[14.1237338,66.315]}},{"id":"709","type":"Feature","properties":{"scalerank":6,"featurecla":"Port","name":"Molde","website":"www.moldehavn.no","natlscale":20.0,"ne_id":1730088843},"geometry":{"type":"Point","coordinates":[7.157420495,62.73638889]}},{"id":"710","type":"Feature","properties":{"scalerank":6,"featurecla":"Port","name":"Mosjoen","website":null,"natlscale":20.0,"ne_id":1730088845},"geometry":{"type":"Point","coordinates":[13.1868669,65.85194444]}},{"id":"711","type":"Feature","properties":{"scalerank":6,"featurecla":"Port","name":"Narvik","website":"www.portofnarvik.com","natlscale":20.0,"ne_id":1730088847},"geometry":{"type":"Point","coordinates":[17.41861013,68.43861111]}},{"id":"712","type":"Feature","properties":{"scalerank":6,"featurecla":"Port","name":"Stavanger","website":"www.stavanger-havn.no","natlscale":20.0,"ne_id":1730088849},"geometry":{"type":"Point","coordinates":[5.737220259,58.97888889]}},{"id":"736","type":"Feature","properties":{"scalerank":6,"featurecla":"Port","name":"Murmansk","website":null,"natlscale":20.0,"ne_id":1730088903},"geometry":{"type":"Point","coordinates":[33.04146054,68.9725]}},{"id":"741","type":"Feature","properties":{"scalerank":6,"featurecla":"Port","name":"Malmo","website":"www.cmport.com","natlscale":20.0,"ne_id":1730088915},"geometry":{"type":"Point","coordinates":[13.00159011,55.62555556]}},{"id":"742","type":"Feature","properties":{"scalerank":6,"featurecla":"Port","name":"Gavle","website":"www.gavle.se","natlscale":20.0,"ne_id":1730088917},"geometry":{"type":"Point","coordinates":[17.19269729,60.68444444]}},{"id":"743","type":"Feature","properties":{"scalerank":6,"featurecla":"Port","name":"Halmstad","website":"www.halmstadharbour.se","natlscale":20.0,"ne_id":1730088919},"geometry":{"type":"Point","coordinates":[12.85,56.655]}},{"id":"744","type":"Feature","properties":{"scalerank":6,"featurecla":"Port","name":"Helsingborg","website":"www.port.helsingborg.se","natlscale":20.0,"ne_id":1730088921},"geometry":{"type":"Point","coordinates":[12.68757362,56.03333333]}},{"id":"745","type":"Feature","properties":{"scalerank":6,"featurecla":"Port","name":"Hudiksvall","website":null,"natlscale":20.0,"ne_id":1730088923},"geometry":{"type":"Point","coordinates":[17.11861013,61.72166667]}},{"id":"746","type":"Feature","properties":{"scalerank":6,"featurecla":"Port","name":"Kalmar","website":"www.kalmar.se/kalmarhamn","natlscale":20.0,"ne_id":1730088925},"geometry":{"type":"Point","coordinates":[16.36914016,56.65916667]}},{"id":"747","type":"Feature","properties":{"scalerank":6,"featurecla":"Port","name":"Ornskoldsvik","website":null,"natlscale":20.0,"ne_id":1730088929},"geometry":{"type":"Point","coordinates":[18.72585395,63.27611111]}},{"id":"748","type":"Feature","properties":{"scalerank":6,"featurecla":"Port","name":"Ronneby","website":null,"natlscale":20.0,"ne_id":1730088931},"geometry":{"type":"Point","coordinates":[15.3,56.17472222]}},{"id":"749","type":"Feature","properties":{"scalerank":6,"featurecla":"Port","name":"Soderhamn","website":"www.sshab.se","natlscale":20.0,"ne_id":1730088933},"geometry":{"type":"Point","coordinates":[17.0893404,61.30833333]}},{"id":"750","type":"Feature","properties":{"scalerank":6,"featurecla":"Port","name":"Vastervik","website":"www.osterstroms.com","natlscale":20.0,"ne_id":1730088935},"geometry":{"type":"Point","coordinates":[16.65194346,57.75583333]}},{"id":"751","type":"Feature","properties":{"scalerank":6,"featurecla":"Port","name":"Visby","website":"www.visbyport.com","natlscale":20.0,"ne_id":1730088937},"geometry":{"type":"Point","coordinates":[18.2746172,57.63555556]}},{"id":"827","type":"Feature","properties":{"scalerank":5,"featurecla":"Port","name":"Bremen","website":"www.bremen-ports.de","natlscale":30.0,"ne_id":1730089109},"geometry":{"type":"Point","coordinates":[8.751060071,53.0975]}},{"id":"828","type":"Feature","properties":{"scalerank":5,"featurecla":"Port","name":"Hamburg","website":"www.hafen-hamburg.de","natlscale":30.0,"ne_id":1730089111},"geometry":{"type":"Point","coordinates":[9.958480565,53.52472222]}},{"id":"830","type":"Feature","properties":{"scalerank":5,"featurecla":"Port","name":"Aalborg","website":"www.aalborghavn.dk","natlscale":30.0,"ne_id":1730089115},"geometry":{"type":"Point","coordinates":[10.00530035,57.06111111]}},{"id":"831","type":"Feature","properties":{"scalerank":5,"featurecla":"Port","name":"Fredericia","website":"www.adp-as.com","natlscale":30.0,"ne_id":1730089117},"geometry":{"type":"Point","coordinates":[9.74057715,55.55805556]}},{"id":"890","type":"Feature","properties":{"scalerank":5,"featurecla":"Port","name":"Bergen","website":"www.bergenhavn.no","natlscale":30.0,"ne_id":1730089249},"geometry":{"type":"Point","coordinates":[5.3196702,60.39694444]}},{"id":"891","type":"Feature","properties":{"scalerank":5,"featurecla":"Port","name":"Tromso","website":"www.tromso.havn.no","natlscale":30.0,"ne_id":1730089253},"geometry":{"type":"Point","coordinates":[18.96878681,69.65583333]}},{"id":"892","type":"Feature","properties":{"scalerank":5,"featurecla":"Port","name":"Trondheim","website":"www.trondheim.havn.no","natlscale":30.0,"ne_id":1730089255},"geometry":{"type":"Point","coordinates":[10.38898704,63.43777778]}},{"id":"903","type":"Feature","properties":{"scalerank":5,"featurecla":"Port","name":"Kaliningrad","website":"www.transmarine.ru/PORTINFO.HTM","natlscale":30.0,"ne_id":1730089279},"geometry":{"type":"Point","coordinates":[20.45547703,54.7]}},{"id":"905","type":"Feature","properties":{"scalerank":5,"featurecla":"Port","name":"Vyborg","website":null,"natlscale":30.0,"ne_id":1730089283},"geometry":{"type":"Point","coordinates":[28.72638398,60.705]}},{"id":"909","type":"Feature","properties":{"scalerank":5,"featurecla":"Port","name":"Goteborg","website":null,"natlscale":30.0,"ne_id":1730089293},"geometry":{"type":"Point","coordinates":[11.87002356,57.68916667]}},{"id":"910","type":"Feature","properties":{"scalerank":5,"featurecla":"Port","name":"Lulea","website":"www.lulea.se/hamnen","natlscale":30.0,"ne_id":1730089295},"geometry":{"type":"Point","coordinates":[22.15830389,65.57888889]}},{"id":"911","type":"Feature","properties":{"scalerank":5,"featurecla":"Port","name":"Norrkoping","website":"www.norrkoping-port.se","natlscale":30.0,"ne_id":1730089297},"geometry":{"type":"Point","coordinates":[16.22567727,58.61027778]}},{"id":"955","type":"Feature","properties":{"scalerank":4,"featurecla":"Port","name":"Kiel","website":"www.port-of-kiel.de","natlscale":50.0,"ne_id":1730089397},"geometry":{"type":"Point","coordinates":[10.15689046,54.33083333]}},{"id":"961","type":"Feature","properties":{"scalerank":4,"featurecla":"Port","name":"Tallinn","website":"www.portoftallinn.com","natlscale":50.0,"ne_id":1730089409},"geometry":{"type":"Point","coordinates":[24.69075383,59.46]}},{"id":"989","type":"Feature","properties":{"scalerank":4,"featurecla":"Port","name":"Szczecin","website":"www.port.szczecin.pl","natlscale":50.0,"ne_id":1730089473},"geometry":{"type":"Point","coordinates":[14.58580683,53.43055556]}},{"id":"994","type":"Feature","properties":{"scalerank":4,"featurecla":"Port","name":"Stockholm","website":"www.stoports.com","natlscale":50.0,"ne_id":1730089483},"geometry":{"type":"Point","coordinates":[18.10936396,59.335]}},{"id":"1012","type":"Feature","properties":{"scalerank":4,"featurecla":"Port","name":"Helsinki","website":null,"natlscale":50.0,"ne_id":1730089525},"geometry":{"type":"Point","coordinates":[24.96,60.16]}},{"id":"1013","type":"Feature","properties":{"scalerank":4,"featurecla":"Port","name":"Sankt-Peterburg","website":null,"natlscale":50.0,"ne_id":1730089527},"geometry":{"type":"Point","coordinates":[30.3,59.93]}},{"id":"1030","type":"Feature","properties":{"scalerank":3,"featurecla":"Port","name":"Bremerhaven","website":"www.bremen-ports.de","natlscale":75.0,"ne_id":1730089565},"geometry":{"type":"Point","coordinates":[8.553003534,53.56361111]}},{"id":"1031","type":"Feature","properties":{"scalerank":3,"featurecla":"Port","name":"Rostock","website":"www.rostock-port.de","natlscale":75.0,"ne_id":1730089567},"geometry":{"type":"Point","coordinates":[12.11790342,54.1525]}},{"id":"1032","type":"Feature","properties":{"scalerank":3,"featurecla":"Port","name":"Tuborg","website":null,"natlscale":75.0,"ne_id":1730089569},"geometry":{"type":"Point","coordinates":[12.58404005,55.72611111]}},{"id":"1052","type":"Feature","properties":{"scalerank":3,"featurecla":"Port","name":"Riga","website":"www.rop.lv","natlscale":75.0,"ne_id":1730089615},"geometry":{"type":"Point","coordinates":[24.08810365,57.00777778]}},{"id":"1056","type":"Feature","properties":{"scalerank":3,"featurecla":"Port","name":"Oslo","website":"www.ohv.oslo.no","natlscale":75.0,"ne_id":1730089623},"geometry":{"type":"Point","coordinates":[10.73457008,59.89722222]}}],"metadata":{"source":"Natural Earth (ne_10m_ports)","license":"Public Domain (CC0)","fetched_at":"2026-05-18T15:39:59.701816+00:00","feature_count":133}}